<?xml version="1.0" standalone="yes"?>
<gpx xmlns="http://www.topografix.com/GPX/1/1" creator="KML2GPX.COM" version="1.1" xmlns:xsi="http://www.w3.org/2001/XMLSchema-instance" xsi:schemaLocation="http://www.topografix.com/GPX/1/1 http://www.topografix.com/GPX/1/1/gpx.xsd">
    <metadata>
        <name><![CDATA[GPS device]]></name>
        <desc><![CDATA[Converted from a KML file KML2GPX.COM]]></desc>
                </metadata>

                                                                                
                <wpt lat="36.781434" lon="-119.121414">
                                                            <ele>1510</ele>
                    <name><![CDATA[49917]]></name>
                    <cmt><![CDATA[HILL 49917]]></cmt>
                    <desc><![CDATA[HILL 49917]]></desc>
                </wpt>
                                                                                                                            
                <wpt lat="36.887250" lon="-119.539083">
                                                            <ele>162</ele>
                    <name><![CDATA[ACADMY]]></name>
                    <cmt><![CDATA[ACADEMY]]></cmt>
                    <desc><![CDATA[ACADEMY]]></desc>
                </wpt>
                                                                                                                            
                <wpt lat="36.716483" lon="-119.137650">
                                                            <ele>641</ele>
                    <name><![CDATA[AIRSTR]]></name>
                    <cmt><![CDATA[AIRSTRIP]]></cmt>
                    <desc><![CDATA[AIRSTRIP]]></desc>
                </wpt>
                                                                                                                            
                <wpt lat="37.077683" lon="-119.488533">
                                                            <ele>606</ele>
                    <name><![CDATA[AUBERY]]></name>
                    <cmt><![CDATA[AUBERY LANDING S]]></cmt>
                    <desc><![CDATA[AUBERY LANDING S]]></desc>
                </wpt>
                                                                                                                            
                <wpt lat="36.765950" lon="-119.203370">
                                                            <ele>1080</ele>
                    <name><![CDATA[BALDMT]]></name>
                    <cmt><![CDATA[BALD MOUNTAIN]]></cmt>
                    <desc><![CDATA[BALD MOUNTAIN]]></desc>
                </wpt>
                                                                                                                            
                <wpt lat="36.745950" lon="-119.281732">
                                                            <ele>1019</ele>
                    <name><![CDATA[BEARMT]]></name>
                    <cmt><![CDATA[BEAR MOUNTAIN]]></cmt>
                    <desc><![CDATA[BEAR MOUNTAIN]]></desc>
                </wpt>
                                                                                                                            
                <wpt lat="36.766384" lon="-119.129500">
                                                            <ele>784</ele>
                    <name><![CDATA[BIGCAT]]></name>
                    <cmt><![CDATA[PROJECT SURVIVAL]]></cmt>
                    <desc><![CDATA[PROJECT SURVIVAL]]></desc>
                </wpt>
                                                                                                                            
                <wpt lat="37.012833" lon="-119.451967">
                                                            <ele>1090</ele>
                    <name><![CDATA[BLKMTN]]></name>
                    <cmt><![CDATA[BLACK MOUNTAIN]]></cmt>
                    <desc><![CDATA[BLACK MOUNTAIN]]></desc>
                </wpt>
                                                                                                                            
                <wpt lat="36.694885" lon="-119.422086">
                                                            <ele>515</ele>
                    <name><![CDATA[CAMPBE]]></name>
                    <cmt><![CDATA[CAMPBELL MTN]]></cmt>
                    <desc><![CDATA[CAMPBELL MTN]]></desc>
                </wpt>
                                                                                                                            
                <wpt lat="36.556580" lon="-119.170966">
                                                            <ele>549</ele>
                    <name><![CDATA[CLIFF]]></name>
                    <cmt><![CDATA[CLIFF PEAK]]></cmt>
                    <desc><![CDATA[CLIFF PEAK]]></desc>
                </wpt>
                                                                                                                            
                <wpt lat="37.001500" lon="-119.549750">
                                                            <ele>570</ele>
                    <name><![CDATA[CORLEW]]></name>
                    <cmt><![CDATA[CORLEW MOUNTIAN]]></cmt>
                    <desc><![CDATA[CORLEW MOUNTIAN]]></desc>
                </wpt>
                                                                                                                            
                <wpt lat="36.594732" lon="-119.256699">
                                                            <ele>395</ele>
                    <name><![CDATA[CURTIS]]></name>
                    <cmt><![CDATA[Waypoint no: 12]]></cmt>
                    <desc><![CDATA[This is waypoint no: 12]]></desc>
                </wpt>
                                                                                                                            
                <wpt lat="36.735500" lon="-119.105133">
                                                            <ele>631</ele>
                    <name><![CDATA[TIM]]></name>
                    <cmt><![CDATA[TIM LZ]]></cmt>
                    <desc><![CDATA[TIM LZ]]></desc>
                </wpt>
                                                                                                                            
                <wpt lat="36.789114" lon="-119.118987">
                                                            <ele>1623</ele>
                    <name><![CDATA[DELILA]]></name>
                    <cmt><![CDATA[DELIILAH]]></cmt>
                    <desc><![CDATA[DELIILAH]]></desc>
                </wpt>
                                                                                                                            
                <wpt lat="36.765267" lon="-119.098434">
                                                            <ele>1414</ele>
                    <name><![CDATA[TIMLNCH]]></name>
                    <cmt><![CDATA[TIM LAUNCH]]></cmt>
                    <desc><![CDATA[TIM LAUNCH]]></desc>
                </wpt>
                                                                                                                            
                <wpt lat="36.634516" lon="-119.117362">
                                                            <ele>674</ele>
                    <name><![CDATA[DRUM]]></name>
                    <cmt><![CDATA[DRUM HILL]]></cmt>
                    <desc><![CDATA[DRUM HILL]]></desc>
                </wpt>
                                                                                                                            
                <wpt lat="36.161117" lon="-119.048883">
                                                            <ele>128</ele>
                    <name><![CDATA[ECKERT]]></name>
                    <cmt><![CDATA[ECKERT AIRPORT]]></cmt>
                    <desc><![CDATA[ECKERT AIRPORT]]></desc>
                </wpt>
                                                                                                                            
                <wpt lat="39.601837" lon="-122.538478">
                                                            <ele>213</ele>
                    <name><![CDATA[ELK]]></name>
                    <cmt><![CDATA[ELK CREEK]]></cmt>
                    <desc><![CDATA[ELK CREEK]]></desc>
                </wpt>
                                                                                                                            
                <wpt lat="36.297343" lon="-119.146046">
                                                            <ele>116</ele>
                    <name><![CDATA[EXETER]]></name>
                    <cmt><![CDATA[Waypoint no: 19]]></cmt>
                    <desc><![CDATA[This is waypoint no: 19]]></desc>
                </wpt>
                                                                                                                            
                <wpt lat="39.520503" lon="-122.681856">
                                                            <ele>1706</ele>
                    <name><![CDATA[FELKNE]]></name>
                    <cmt><![CDATA[FELKNER OH MY GO]]></cmt>
                    <desc><![CDATA[FELKNER OH MY GO]]></desc>
                </wpt>
                                                                                                                            
                <wpt lat="36.729831" lon="-119.134483">
                                                            <ele>880</ele>
                    <name><![CDATA[GRNY]]></name>
                    <cmt><![CDATA[GRANY S KNOB]]></cmt>
                    <desc><![CDATA[GRANY S KNOB]]></desc>
                </wpt>
                                                                                                                            
                <wpt lat="40.300707" lon="-122.326883">
                                                            <ele>151</ele>
                    <name><![CDATA[HOOKER]]></name>
                    <cmt><![CDATA[Waypoint no: 22]]></cmt>
                    <desc><![CDATA[This is waypoint no: 22]]></desc>
                </wpt>
                                                                                                                            
                <wpt lat="36.959541" lon="-119.444173">
                                                            <ele>332</ele>
                    <name><![CDATA[HUMPH]]></name>
                    <cmt><![CDATA[HREY STATION]]></cmt>
                    <desc><![CDATA[HREY STATION]]></desc>
                </wpt>
                                                                                                                            
                <wpt lat="39.405803" lon="-122.551706">
                                                            <ele>335</ele>
                    <name><![CDATA[INDIAN]]></name>
                    <cmt><![CDATA[INDIAN VALLEY]]></cmt>
                    <desc><![CDATA[INDIAN VALLEY]]></desc>
                </wpt>
                                                                                                                            
                <wpt lat="36.737536" lon="-119.407053">
                                                            <ele>566</ele>
                    <name><![CDATA[JESSE]]></name>
                    <cmt><![CDATA[JESSE MTN]]></cmt>
                    <desc><![CDATA[JESSE MTN]]></desc>
                </wpt>
                                                                                                                            
                <wpt lat="39.419537" lon="-122.673654">
                                                            <ele>1668</ele>
                    <name><![CDATA[JOHNLO]]></name>
                    <cmt><![CDATA[LOW ON ST JOHN]]></cmt>
                    <desc><![CDATA[LOW ON ST JOHN]]></desc>
                </wpt>
                                                                                                                            
                <wpt lat="36.952050" lon="-119.482450">
                                                            <ele>550</ele>
                    <name><![CDATA[KEYS]]></name>
                    <cmt><![CDATA[KEYS MOUNTAIN]]></cmt>
                    <desc><![CDATA[KEYS MOUNTAIN]]></desc>
                </wpt>
                                                                                                                            
                <wpt lat="37.022156" lon="-119.410421">
                                                            <ele>832</ele>
                    <name><![CDATA[KNOB]]></name>
                    <cmt><![CDATA[KNOB]]></cmt>
                    <desc><![CDATA[KNOB]]></desc>
                </wpt>
                                                                                                                            
                <wpt lat="36.385974" lon="-119.022777">
                                                            <ele>157</ele>
                    <name><![CDATA[LEMON]]></name>
                    <cmt><![CDATA[LEMONCOVE]]></cmt>
                    <desc><![CDATA[LEMONCOVE]]></desc>
                </wpt>
                                                                                                                            
                <wpt lat="39.302783" lon="-122.490567">
                                                            <ele>378</ele>
                    <name><![CDATA[LODOGA]]></name>
                    <cmt><![CDATA[Waypoint no: 30]]></cmt>
                    <desc><![CDATA[This is waypoint no: 30]]></desc>
                </wpt>
                                                                                                                            
                <wpt lat="40.013742" lon="-122.553231">
                                                            <ele>249</ele>
                    <name><![CDATA[LOWREY]]></name>
                    <cmt><![CDATA[Waypoint no: 31]]></cmt>
                    <desc><![CDATA[This is waypoint no: 31]]></desc>
                </wpt>
                                                                                                                            
                <wpt lat="37.018750" lon="-119.573983">
                                                            <ele>471</ele>
                    <name><![CDATA[MARSHA]]></name>
                    <cmt><![CDATA[MARSHALL HILL]]></cmt>
                    <desc><![CDATA[MARSHALL HILL]]></desc>
                </wpt>
                                                                                                                            
                <wpt lat="39.287350" lon="-122.188717">
                                                            <ele>25</ele>
                    <name><![CDATA[MAXWEL]]></name>
                    <cmt><![CDATA[MAXWELL AIRSTRIP]]></cmt>
                    <desc><![CDATA[MAXWELL AIRSTRIP]]></desc>
                </wpt>
                                                                                                                            
                <wpt lat="36.991183" lon="-119.711650">
                                                            <ele>99</ele>
                    <name><![CDATA[MILLLZ]]></name>
                    <cmt><![CDATA[MILLERTON LAKE L]]></cmt>
                    <desc><![CDATA[MILLERTON LAKE L]]></desc>
                </wpt>
                                                                                                                            
                <wpt lat="36.721366" lon="-119.121185">
                                                            <ele>853</ele>
                    <name><![CDATA[NONAME]]></name>
                    <cmt><![CDATA[NO NAME KNOB]]></cmt>
                    <desc><![CDATA[NO NAME KNOB]]></desc>
                </wpt>
                                                                                                                            
                <wpt lat="36.630116" lon="-119.308668">
                                                            <ele>131</ele>
                    <name><![CDATA[ORANGE]]></name>
                    <cmt><![CDATA[ORANGE COVE SOCC]]></cmt>
                    <desc><![CDATA[ORANGE COVE SOCC]]></desc>
                </wpt>
                                                                                                                            
                <wpt lat="36.545750" lon="-119.268367">
                                                            <ele>116</ele>
                    <name><![CDATA[OROSI]]></name>
                    <cmt><![CDATA[EAST OROSI]]></cmt>
                    <desc><![CDATA[EAST OROSI]]></desc>
                </wpt>
                                                                                                                            
                <wpt lat="39.884624" lon="-122.545823">
                                                            <ele>243</ele>
                    <name><![CDATA[PASKEN]]></name>
                    <cmt><![CDATA[PASKENTA]]></cmt>
                    <desc><![CDATA[PASKENTA]]></desc>
                </wpt>
                                                                                                                            
                <wpt lat="36.072319" lon="-119.024590">
                                                            <ele>136</ele>
                    <name><![CDATA[PORTER]]></name>
                    <cmt><![CDATA[PORTERVILLE]]></cmt>
                    <desc><![CDATA[PORTERVILLE]]></desc>
                </wpt>
                                                                                                                            
                <wpt lat="39.349622" lon="-122.662050">
                                                            <ele>517</ele>
                    <name><![CDATA[POTLZ]]></name>
                    <cmt><![CDATA[POTATO LZ]]></cmt>
                    <desc><![CDATA[POTATO LZ]]></desc>
                </wpt>
                                                                                                                            
                <wpt lat="39.515818" lon="-122.562791">
                                                            <ele>552</ele>
                    <name><![CDATA[RADIO]]></name>
                    <cmt><![CDATA[RADIO TOWER]]></cmt>
                    <desc><![CDATA[RADIO TOWER]]></desc>
                </wpt>
                                                                                                                            
                <wpt lat="40.180050" lon="-122.237900">
                                                            <ele>87</ele>
                    <name><![CDATA[REDBLF]]></name>
                    <cmt><![CDATA[RED BLUFF BABY]]></cmt>
                    <desc><![CDATA[RED BLUFF BABY]]></desc>
                </wpt>
                                                                                                                            
                <wpt lat="39.356367" lon="-122.516483">
                                                            <ele>365</ele>
                    <name><![CDATA[RESERV]]></name>
                    <cmt><![CDATA[EAST PARK RESERV]]></cmt>
                    <desc><![CDATA[EAST PARK RESERV]]></desc>
                </wpt>
                                                                                                                            
                <wpt lat="36.756417" lon="-119.165734">
                                                            <ele>557</ele>
                    <name><![CDATA[RNGSTN]]></name>
                    <cmt><![CDATA[RANGER STATION]]></cmt>
                    <desc><![CDATA[RANGER STATION]]></desc>
                </wpt>
                                                                                                                            
                <wpt lat="36.730316" lon="-119.191887">
                                                            <ele>814</ele>
                    <name><![CDATA[RUTH]]></name>
                    <cmt><![CDATA[RUTH HILL]]></cmt>
                    <desc><![CDATA[RUTH HILL]]></desc>
                </wpt>
                                                                                                                            
                <wpt lat="37.073883" lon="-119.465083">
                                                            <ele>929</ele>
                    <name><![CDATA[SANDYM]]></name>
                    <cmt><![CDATA[SANDY MOUNTAIN]]></cmt>
                    <desc><![CDATA[SANDY MOUNTAIN]]></desc>
                </wpt>
                                                                                                                            
                <wpt lat="37.046400" lon="-119.450683">
                                                            <ele>642</ele>
                    <name><![CDATA[SKNOB]]></name>
                    <cmt><![CDATA[SANDY KNOB]]></cmt>
                    <desc><![CDATA[SANDY KNOB]]></desc>
                </wpt>
                                                                                                                            
                <wpt lat="39.370803" lon="-122.690058">
                                                            <ele>1360</ele>
                    <name><![CDATA[SNOWVL]]></name>
                    <cmt><![CDATA[VERY LOW ON SNOW]]></cmt>
                    <desc><![CDATA[VERY LOW ON SNOW]]></desc>
                </wpt>
                                                                                                                            
                <wpt lat="36.746933" lon="-119.076667">
                                                            <ele>1276</ele>
                    <name><![CDATA[SONTAG]]></name>
                    <cmt><![CDATA[SONTAG POINT]]></cmt>
                    <desc><![CDATA[SONTAG POINT]]></desc>
                </wpt>
                                                                                                                            
                <wpt lat="36.738767" lon="-119.251517">
                                                            <ele>507</ele>
                    <name><![CDATA[SQVAL]]></name>
                    <cmt><![CDATA[SQUAW VALLEY]]></cmt>
                    <desc><![CDATA[SQUAW VALLEY]]></desc>
                </wpt>
                                                                                                                            
                <wpt lat="39.430413" lon="-122.691597">
                                                            <ele>1938</ele>
                    <name><![CDATA[STJOHN]]></name>
                    <cmt><![CDATA[ST JOHN MOUNTAIN]]></cmt>
                    <desc><![CDATA[ST JOHN MOUNTAIN]]></desc>
                </wpt>
                                                                                                                            
                <wpt lat="39.375000" lon="-122.543833">
                                                            <ele>359</ele>
                    <name><![CDATA[STONYF]]></name>
                    <cmt><![CDATA[STONYFORD]]></cmt>
                    <desc><![CDATA[STONYFORD]]></desc>
                </wpt>
                                                                                                                            
                <wpt lat="37.033300" lon="-119.386600">
                                                            <ele>1189</ele>
                    <name><![CDATA[TIT]]></name>
                    <cmt><![CDATA[SQUAW TIT]]></cmt>
                    <desc><![CDATA[SQUAW TIT]]></desc>
                </wpt>
                                                                                                                            
                <wpt lat="36.800403" lon="-119.359686">
                                                            <ele>856</ele>
                    <name><![CDATA[TIVYMT]]></name>
                    <cmt><![CDATA[TIVY MOUNTAIN]]></cmt>
                    <desc><![CDATA[TIVY MOUNTAIN]]></desc>
                </wpt>
                                                                                                                            
                <wpt lat="37.015500" lon="-119.373350">
                                                            <ele>1241</ele>
                    <name><![CDATA[TOLLLN]]></name>
                    <cmt><![CDATA[TOLLHOUSE LAUNCH]]></cmt>
                    <desc><![CDATA[TOLLHOUSE LAUNCH]]></desc>
                </wpt>
                                                                                                                            
                <wpt lat="39.334887" lon="-122.698008">
                                                            <ele>1072</ele>
                    <name><![CDATA[TOP]]></name>
                    <cmt><![CDATA[POTATO TOP]]></cmt>
                    <desc><![CDATA[POTATO TOP]]></desc>
                </wpt>
                                                                                                                            
                <wpt lat="39.349687" lon="-122.646608">
                                                            <ele>775</ele>
                    <name><![CDATA[TROUGH]]></name>
                    <cmt><![CDATA[TROUGH SPUR]]></cmt>
                    <desc><![CDATA[TROUGH SPUR]]></desc>
                </wpt>
                                                                                                                            
                <wpt lat="36.638583" lon="-119.209480">
                                                            <ele>789</ele>
                    <name><![CDATA[TUCKER]]></name>
                    <cmt><![CDATA[TUCKER MOUNTAIN]]></cmt>
                    <desc><![CDATA[TUCKER MOUNTAIN]]></desc>
                </wpt>
                                                                                                                            
                <wpt lat="36.932950" lon="-119.367483">
                                                            <ele>450</ele>
                    <name><![CDATA[WATT]]></name>
                    <cmt><![CDATA[WATTS VALLEY]]></cmt>
                    <desc><![CDATA[WATTS VALLEY]]></desc>
                </wpt>
                                                                                                                            
                <wpt lat="39.521450" lon="-122.220383">
                                                            <ele>41</ele>
                    <name><![CDATA[WILLOW]]></name>
                    <cmt><![CDATA[WILLOWS AIRPORT]]></cmt>
                    <desc><![CDATA[WILLOWS AIRPORT]]></desc>
                </wpt>
                                                                                                                            
                <wpt lat="36.691117" lon="-119.258034">
                                                            <ele>560</ele>
                    <name><![CDATA[WOLVER]]></name>
                    <cmt><![CDATA[WOLVERINE LANE S]]></cmt>
                    <desc><![CDATA[WOLVERINE LANE S]]></desc>
                </wpt>
                                                                                                                            
                <wpt lat="36.421767" lon="-119.100650">
                                                            <ele>134</ele>
                    <name><![CDATA[WOODLA]]></name>
                    <cmt><![CDATA[WOODLAKE SCHOOL]]></cmt>
                    <desc><![CDATA[WOODLAKE SCHOOL]]></desc>
                </wpt>
                                                                                                                            
                <wpt lat="36.213015" lon="-119.094586">
                                                            <ele>113</ele>
                    <name><![CDATA[LINDSY]]></name>
                    <cmt><![CDATA[LINDSAY]]></cmt>
                    <desc><![CDATA[LINDSAY]]></desc>
                </wpt>
                                                                                                                            
                <wpt lat="36.760380" lon="-119.170060">
                                                            <ele>580</ele>
                    <name><![CDATA[HOPE]]></name>
                    <cmt><![CDATA[HOPEWELL ROAD]]></cmt>
                    <desc><![CDATA[HOPEWELL ROAD]]></desc>
                </wpt>
                                                                                                                            
                <wpt lat="36.710280" lon="-119.137830">
                                                            <ele>737</ele>
                    <name><![CDATA[JEEP]]></name>
                    <cmt><![CDATA[Jeep trail hill]]></cmt>
                    <desc><![CDATA[Jeep trail hill]]></desc>
                </wpt>
                                                                                                                            
                <wpt lat="36.717020" lon="-119.288550">
                                                            <ele>410</ele>
                    <name><![CDATA[63BEND]]></name>
                    <cmt><![CDATA[Bend in Highway63]]></cmt>
                    <desc><![CDATA[Bend in Highway63]]></desc>
                </wpt>
                                                                                                                            
                <wpt lat="36.703780" lon="-119.237840">
                                                            <ele>641</ele>
                    <name><![CDATA[FAWN]]></name>
                    <cmt><![CDATA[FAWN LANE HILL]]></cmt>
                    <desc><![CDATA[FAWN LANE HILL]]></desc>
                </wpt>
                                                                                                                            
                <wpt lat="36.668980" lon="-119.238270">
                                                            <ele>477</ele>
                    <name><![CDATA[SNDCRN]]></name>
                    <cmt><![CDATA[Waypoint no: 68]]></cmt>
                    <desc><![CDATA[This is waypoint no: 68]]></desc>
                </wpt>
                                                                                                                            
                <wpt lat="36.287630" lon="-119.088760">
                                                            <ele>444</ele>
                    <name><![CDATA[ROCKYH]]></name>
                    <cmt><![CDATA[ROCKY HILL]]></cmt>
                    <desc><![CDATA[ROCKY HILL]]></desc>
                </wpt>
                                                                                                                            
                <wpt lat="36.818690" lon="-119.510940">
                                                            <ele>257</ele>
                    <name><![CDATA[ROUND]]></name>
                    <cmt><![CDATA[Round Mt]]></cmt>
                    <desc><![CDATA[Round Mt]]></desc>
                </wpt>
                                                                                                                            
                <wpt lat="36.813310" lon="-119.465350">
                                                            <ele>271</ele>
                    <name><![CDATA[COYOTE]]></name>
                    <cmt><![CDATA[COYOTE RIDGE]]></cmt>
                    <desc><![CDATA[COYOTE RIDGE]]></desc>
                </wpt>
                                                                                                                            
                <wpt lat="36.847230" lon="-119.515440">
                                                            <ele>153</ele>
                    <name><![CDATA[KINDSV]]></name>
                    <cmt><![CDATA[KINDSVATER RANCH AIRPORT]]></cmt>
                    <desc><![CDATA[KINDSVATER RANCH AIRPORT]]></desc>
                </wpt>
                                                                                                                            
                <wpt lat="36.886520" lon="-119.436010">
                                                            <ele>688</ele>
                    <name><![CDATA[WILDCAT]]></name>
                    <cmt><![CDATA[WILDCAT MOUNTAIN]]></cmt>
                    <desc><![CDATA[WILDCAT MOUNTAIN]]></desc>
                </wpt>
                                                                                                                            
                <wpt lat="37.011260" lon="-119.792910">
                                                            <ele>139</ele>
                    <name><![CDATA[4CORNERS]]></name>
                    <cmt><![CDATA[4 CORNERS]]></cmt>
                    <desc><![CDATA[4 CORNERS]]></desc>
                </wpt>
                                                                                                                            
                <wpt lat="36.973770" lon="-120.035000">
                                                            <ele>86</ele>
                    <name><![CDATA[MILLVW]]></name>
                    <cmt><![CDATA[MILLVIEW PARK]]></cmt>
                    <desc><![CDATA[MILLVIEW PARK]]></desc>
                </wpt>
                                                                                                                            
                <wpt lat="37.065125" lon="-119.456674">
                                                            <ele>644</ele>
                    <name><![CDATA[4LNTRN]]></name>
                    <cmt><![CDATA[4 LANE TURN]]></cmt>
                    <desc><![CDATA[4 LANE TURN]]></desc>
                </wpt>
                                                                                                                            
                <wpt lat="36.698151" lon="-119.305469">
                                                            <ele>161</ele>
                    <name><![CDATA[63LZ]]></name>
                    <cmt><![CDATA[HILLS VALLEY]]></cmt>
                    <desc><![CDATA[HILLS VALLEY]]></desc>
                </wpt>
                                                                                                                            
                <wpt lat="36.432460" lon="-119.075564">
                                                            <ele>473</ele>
                    <name><![CDATA[ANT]]></name>
                    <cmt><![CDATA[ANTELOPE MOUNTAI]]></cmt>
                    <desc><![CDATA[ANTELOPE MOUNTAI]]></desc>
                </wpt>
                                                                                                                            
                <wpt lat="36.782086" lon="-119.414471">
                                                            <ele>144</ele>
                    <name><![CDATA[AVOCAD]]></name>
                    <cmt><![CDATA[AVACADO LAKE]]></cmt>
                    <desc><![CDATA[AVACADO LAKE]]></desc>
                </wpt>
                                                                                                                            
                <wpt lat="39.409858" lon="-122.621189">
                                                            <ele>977</ele>
                    <name><![CDATA[BLKDMD]]></name>
                    <cmt><![CDATA[BLACK DIAMOND]]></cmt>
                    <desc><![CDATA[BLACK DIAMOND]]></desc>
                </wpt>
                                                                                                                            
                <wpt lat="36.972274" lon="-119.376872">
                                                            <ele>604</ele>
                    <name><![CDATA[BURROU]]></name>
                    <cmt><![CDATA[BURROUGH VALLEY]]></cmt>
                    <desc><![CDATA[BURROUGH VALLEY]]></desc>
                </wpt>
                                                                                                                            
                <wpt lat="36.983326" lon="-119.640641">
                                                            <ele>235</ele>
                    <name><![CDATA[CASINO]]></name>
                    <cmt><![CDATA[TABLE MOUNTAIN C]]></cmt>
                    <desc><![CDATA[TABLE MOUNTAIN C]]></desc>
                </wpt>
                                                                                                                            
                <wpt lat="39.724799" lon="-122.551116">
                                                            <ele>282</ele>
                    <name><![CDATA[CHROME]]></name>
                    <cmt><![CDATA[Waypoint no: 83]]></cmt>
                    <desc><![CDATA[This is waypoint no: 83]]></desc>
                </wpt>
                                                                                                                            
                <wpt lat="36.452338" lon="-119.150348">
                                                            <ele>479</ele>
                    <name><![CDATA[COLVIN]]></name>
                    <cmt><![CDATA[COLVIN MOUNTAIN]]></cmt>
                    <desc><![CDATA[COLVIN MOUNTAIN]]></desc>
                </wpt>
                                                                                                                            
                <wpt lat="36.523625" lon="-119.286400">
                                                            <ele>108</ele>
                    <name><![CDATA[CUTLER]]></name>
                    <cmt><![CDATA[Waypoint no: 85]]></cmt>
                    <desc><![CDATA[This is waypoint no: 85]]></desc>
                </wpt>
                                                                                                                            
                <wpt lat="36.774402" lon="-119.241068">
                                                            <ele>1052</ele>
                    <name><![CDATA[DLTNMT]]></name>
                    <cmt><![CDATA[DALTON MOUNTAIN]]></cmt>
                    <desc><![CDATA[DALTON MOUNTAIN]]></desc>
                </wpt>
                                                                                                                            
                <wpt lat="36.819990" lon="-119.379390">
                                                            <ele>161</ele>
                    <name><![CDATA[DOYLES]]></name>
                    <cmt><![CDATA[DOYLES STORE WIT]]></cmt>
                    <desc><![CDATA[DOYLES STORE WIT]]></desc>
                </wpt>
                                                                                                                            
                <wpt lat="36.972566" lon="-119.532996">
                                                            <ele>242</ele>
                    <name><![CDATA[DRYCRK]]></name>
                    <cmt><![CDATA[CREEK]]></cmt>
                    <desc><![CDATA[CREEK]]></desc>
                </wpt>
                                                                                                                            
                <wpt lat="36.479072" lon="-119.115847">
                                                            <ele>157</ele>
                    <name><![CDATA[ELDERW]]></name>
                    <cmt><![CDATA[ELDERWOOD STATIO]]></cmt>
                    <desc><![CDATA[ELDERWOOD STATIO]]></desc>
                </wpt>
                                                                                                                            
                <wpt lat="36.737117" lon="-119.079649">
                                                            <ele>1052</ele>
                    <name><![CDATA[LASTCH]]></name>
                    <cmt><![CDATA[LAST CHANCE]]></cmt>
                    <desc><![CDATA[LAST CHANCE]]></desc>
                </wpt>
                                                                                                                            
                <wpt lat="36.961308" lon="-119.507489">
                                                            <ele>338</ele>
                    <name><![CDATA[NICHOL]]></name>
                    <cmt><![CDATA[NICHOLAS ROAD HI]]></cmt>
                    <desc><![CDATA[NICHOLAS ROAD HI]]></desc>
                </wpt>
                                                                                                                            
                <wpt lat="36.867057" lon="-119.291889">
                                                            <ele>289</ele>
                    <name><![CDATA[PINEFL]]></name>
                    <cmt><![CDATA[PINE FLAT RESERV]]></cmt>
                    <desc><![CDATA[PINE FLAT RESERV]]></desc>
                </wpt>
                                                                                                                            
                <wpt lat="39.340662" lon="-122.685269">
                                                            <ele>1039</ele>
                    <name><![CDATA[POTLAU]]></name>
                    <cmt><![CDATA[POTATO LAUNCH]]></cmt>
                    <desc><![CDATA[POTATO LAUNCH]]></desc>
                </wpt>
                                                                                                                            
                <wpt lat="37.038491" lon="-119.524058">
                                                            <ele>497</ele>
                    <name><![CDATA[PRATHE]]></name>
                    <cmt><![CDATA[PRATHER AIRSTRIP]]></cmt>
                    <desc><![CDATA[PRATHER AIRSTRIP]]></desc>
                </wpt>
                                                                                                                            
                <wpt lat="40.099447" lon="-122.445424">
                                                            <ele>172</ele>
                    <name><![CDATA[REDBAN]]></name>
                    <cmt><![CDATA[RED BANK]]></cmt>
                    <desc><![CDATA[RED BANK]]></desc>
                </wpt>
                                                                                                                            
                <wpt lat="39.742599" lon="-122.609649">
                                                            <ele>1107</ele>
                    <name><![CDATA[REDMTN]]></name>
                    <cmt><![CDATA[RED MOUNTAIN]]></cmt>
                    <desc><![CDATA[RED MOUNTAIN]]></desc>
                </wpt>
                                                                                                                            
                <wpt lat="37.036241" lon="-119.454840">
                                                            <ele>586</ele>
                    <name><![CDATA[SJUHS]]></name>
                    <cmt><![CDATA[SIERRA JOINT UNI]]></cmt>
                    <desc><![CDATA[SIERRA JOINT UNI]]></desc>
                </wpt>
                                                                                                                            
                <wpt lat="36.624216" lon="-119.262301">
                                                            <ele>147</ele>
                    <name><![CDATA[SNDCRK]]></name>
                    <cmt><![CDATA[SAND CREEK]]></cmt>
                    <desc><![CDATA[SAND CREEK]]></desc>
                </wpt>
                                                                                                                            
                <wpt lat="37.069425" lon="-119.540491">
                                                            <ele>717</ele>
                    <name><![CDATA[SQUAW]]></name>
                    <cmt><![CDATA[SQUAW LEAP]]></cmt>
                    <desc><![CDATA[SQUAW LEAP]]></desc>
                </wpt>
                                                                                                                            
                <wpt lat="36.517107" lon="-119.196882">
                                                            <ele>568</ele>
                    <name><![CDATA[STOKES]]></name>
                    <cmt><![CDATA[STOKES MOUNTAIN]]></cmt>
                    <desc><![CDATA[STOKES MOUNTAIN]]></desc>
                </wpt>
                                                                                                                            
                <wpt lat="39.542210" lon="-122.536135">
                                                            <ele>735</ele>
                    <name><![CDATA[STYCKR]]></name>
                    <cmt><![CDATA[STONY CREEK RESE]]></cmt>
                    <desc><![CDATA[STONY CREEK RESE]]></desc>
                </wpt>
                                                                                                                            
                <wpt lat="37.014007" lon="-119.400388">
                                                            <ele>580</ele>
                    <name><![CDATA[TOLLLZ]]></name>
                    <cmt><![CDATA[TOLLHOUSE LZ]]></cmt>
                    <desc><![CDATA[TOLLHOUSE LZ]]></desc>
                </wpt>
                                                                                                                            
                <wpt lat="36.249556" lon="-119.093378">
                                                            <ele>107</ele>
                    <name><![CDATA[TONY]]></name>
                    <cmt><![CDATA[TONYVILLE]]></cmt>
                    <desc><![CDATA[TONYVILLE]]></desc>
                </wpt>
                                                                                                                            
                <wpt lat="36.790048" lon="-119.307720">
                                                            <ele>219</ele>
                    <name><![CDATA[ELWOOD]]></name>
                    <cmt><![CDATA[Waypoint no: 104]]></cmt>
                    <desc><![CDATA[This is waypoint no: 104]]></desc>
                </wpt>
                                                                                                                            
                <wpt lat="36.825030" lon="-119.342887">
                                                            <ele>189</ele>
                    <name><![CDATA[DEER]]></name>
                    <cmt><![CDATA[Waypoint no: 105]]></cmt>
                    <desc><![CDATA[This is waypoint no: 105]]></desc>
                </wpt>
                                                                                                                            
                <wpt lat="36.713770" lon="-119.211554">
                                                            <ele>699</ele>
                    <name><![CDATA[TANK]]></name>
                    <cmt><![CDATA[Waypoint no: 106]]></cmt>
                    <desc><![CDATA[This is waypoint no: 106]]></desc>
                </wpt>
                                                                                                                            
                <wpt lat="36.751376" lon="-119.557445">
                                                            <ele>117</ele>
                    <name><![CDATA[Sanger180]]></name>
                    <cmt><![CDATA[Sanger and 180]]></cmt>
                    <desc><![CDATA[Sanger and 180]]></desc>
                </wpt>
                                                                                                                            
                <wpt lat="39.329830" lon="-122.535650">
                                                            <ele>394</ele>
                    <name><![CDATA[Alice]]></name>
                    <cmt><![CDATA[Alice Bass]]></cmt>
                    <desc><![CDATA[Alice Bass]]></desc>
                </wpt>
                                                                                                                            
                <wpt lat="39.141400" lon="-122.498400">
                                                            <ele>1013</ele>
                    <name><![CDATA[BALDYMT]]></name>
                    <cmt><![CDATA[BALDY MOUNTAIN]]></cmt>
                    <desc><![CDATA[BALDY MOUNTAIN]]></desc>
                </wpt>
                                                                                                                            
                <wpt lat="39.199717" lon="-122.444800">
                                                            <ele>603</ele>
                    <name><![CDATA[BEARVB]]></name>
                    <cmt><![CDATA[BEAR VALLEY BUTTE]]></cmt>
                    <desc><![CDATA[BEAR VALLEY BUTTE]]></desc>
                </wpt>
                                                                                                                            
                <wpt lat="39.310283" lon="-122.337567">
                                                            <ele>86</ele>
                    <name><![CDATA[SITES]]></name>
                    <cmt><![CDATA[Waypoint no: 111]]></cmt>
                    <desc><![CDATA[This is waypoint no: 111]]></desc>
                </wpt>
                                                                                                                            
                <wpt lat="39.351333" lon="-122.456900">
                                                            <ele>687</ele>
                    <name><![CDATA[GRAPE]]></name>
                    <cmt><![CDATA[GRAPEVINE PASS RADIO]]></cmt>
                    <desc><![CDATA[GRAPEVINE PASS RADIO]]></desc>
                </wpt>
                                                                                                                            
                <wpt lat="39.374400" lon="-122.475500">
                                                            <ele>619</ele>
                    <name><![CDATA[CLARK]]></name>
                    <cmt><![CDATA[CLARK RIDGE]]></cmt>
                    <desc><![CDATA[CLARK RIDGE]]></desc>
                </wpt>
                                                                                                                            
                <wpt lat="39.309400" lon="-122.553167">
                                                            <ele>746</ele>
                    <name><![CDATA[GILMORE]]></name>
                    <cmt><![CDATA[GILMORE PEAK]]></cmt>
                    <desc><![CDATA[GILMORE PEAK]]></desc>
                </wpt>
                                                                                                                            
                <wpt lat="39.330600" lon="-122.583633">
                                                            <ele>926</ele>
                    <name><![CDATA[HORNET]]></name>
                    <cmt><![CDATA[HORNET NEST HILL]]></cmt>
                    <desc><![CDATA[HORNET NEST HILL]]></desc>
                </wpt>
                                                                                                                            
                <wpt lat="39.366050" lon="-122.622183">
                                                            <ele>456</ele>
                    <name><![CDATA[WOLF]]></name>
                    <cmt><![CDATA[WOLF CREEK]]></cmt>
                    <desc><![CDATA[WOLF CREEK]]></desc>
                </wpt>
                                                                                                                            
                <wpt lat="39.383250" lon="-122.751967">
                                                            <ele>2144</ele>
                    <name><![CDATA[SNOW]]></name>
                    <cmt><![CDATA[SNOW MT EAST]]></cmt>
                    <desc><![CDATA[SNOW MT EAST]]></desc>
                </wpt>
                                                                                                                            
                <wpt lat="39.395033" lon="-122.599600">
                                                            <ele>773</ele>
                    <name><![CDATA[AUKAUK]]></name>
                    <cmt><![CDATA[AUK AUK RIDGE]]></cmt>
                    <desc><![CDATA[AUK AUK RIDGE]]></desc>
                </wpt>
                                                                                                                            
                <wpt lat="39.433583" lon="-122.540200">
                                                            <ele>363</ele>
                    <name><![CDATA[SULPHUR]]></name>
                    <cmt><![CDATA[SULPHUR SPRINGS]]></cmt>
                    <desc><![CDATA[SULPHUR SPRINGS]]></desc>
                </wpt>
                                                                                                                            
                <wpt lat="39.458100" lon="-122.607167">
                                                            <ele>885</ele>
                    <name><![CDATA[ELEPHANT]]></name>
                    <cmt><![CDATA[Waypoint no: 120]]></cmt>
                    <desc><![CDATA[This is waypoint no: 120]]></desc>
                </wpt>
                                                                                                                            
                <wpt lat="39.452750" lon="-122.470900">
                                                            <ele>551</ele>
                    <name><![CDATA[RADIOC]]></name>
                    <cmt><![CDATA[RADIO ON CLAERK RIDGE]]></cmt>
                    <desc><![CDATA[RADIO ON CLAERK RIDGE]]></desc>
                </wpt>
                                                                                                                            
                <wpt lat="39.531383" lon="-122.331417">
                                                            <ele>82</ele>
                    <name><![CDATA[HOODOO]]></name>
                    <cmt><![CDATA[HOODOO HILLS]]></cmt>
                    <desc><![CDATA[HOODOO HILLS]]></desc>
                </wpt>
                                                                                                                            
                <wpt lat="39.587800" lon="-122.447350">
                                                            <ele>183</ele>
                    <name><![CDATA[FRUTO]]></name>
                    <cmt><![CDATA[FRUTO]]></cmt>
                    <desc><![CDATA[FRUTO]]></desc>
                </wpt>
                                                                                                                            
                <wpt lat="39.829383" lon="-122.368717">
                                                            <ele>170</ele>
                    <name><![CDATA[BLACKB]]></name>
                    <cmt><![CDATA[BLACK BUTTE RESERVOIR]]></cmt>
                    <desc><![CDATA[BLACK BUTTE RESERVOIR]]></desc>
                </wpt>
                                                                                                                            
                <wpt lat="36.76940" lon="-119.1014299">
                                                            <ele>1415</ele>
                    <name><![CDATA[DNLNCH]]></name>
                    <cmt><![CDATA[DUNLAP LAUNCH]]></cmt>
                    <desc><![CDATA[DUNLAP LAUNCH]]></desc>
                </wpt>
                                                                                                                            
                <wpt lat="36.72889" lon="-119.10748">
                                                            <ele>568</ele>
                    <name><![CDATA[DNLPLZ]]></name>
                    <cmt><![CDATA[DUNLAP LZ]]></cmt>
                    <desc><![CDATA[DUNLAP LZ]]></desc>
                </wpt>
                                                                                                                            
                <wpt lat="37.058509" lon="-119.517292">
                                                            <ele>707</ele>
                    <name><![CDATA[MIDDLE]]></name>
                    <cmt><![CDATA[MIDDLE KING]]></cmt>
                    <desc><![CDATA[MIDDLE KING]]></desc>
                </wpt>
                                                                                                                            
                <wpt lat="36.710229" lon="-119.137895">
                                                            <ele>0</ele>
                    <name><![CDATA[TRK 1-0]]></name>
                    <cmt><![CDATA[Longitude: -119.137895 
Latitude: 36.710229 
Heading: 310.5]]></cmt>
                    <desc><![CDATA[Longitude: -119.137895 
Latitude: 36.710229 
Heading: 310.5]]></desc>
                </wpt>
                                                                                                                            
                <wpt lat="36.709740" lon="-119.138017">
                                                            <ele>0</ele>
                    <name><![CDATA[TRK 1-1]]></name>
                    <cmt><![CDATA[Longitude: -119.138017 
Latitude: 36.709740 
Heading: 191.3]]></cmt>
                    <desc><![CDATA[Longitude: -119.138017 
Latitude: 36.709740 
Heading: 191.3]]></desc>
                </wpt>
                                                                                                                            
                <wpt lat="36.709300" lon="-119.138260">
                                                            <ele>0</ele>
                    <name><![CDATA[TRK 1-2]]></name>
                    <cmt><![CDATA[Longitude: -119.138260 
Latitude: 36.709300 
Heading: 203.9]]></cmt>
                    <desc><![CDATA[Longitude: -119.138260 
Latitude: 36.709300 
Heading: 203.9]]></desc>
                </wpt>
                                                                                                                            
                <wpt lat="36.708909" lon="-119.138321">
                                                            <ele>0</ele>
                    <name><![CDATA[TRK 1-3]]></name>
                    <cmt><![CDATA[Longitude: -119.138321 
Latitude: 36.708909 
Heading: 187.1]]></cmt>
                    <desc><![CDATA[Longitude: -119.138321 
Latitude: 36.708909 
Heading: 187.1]]></desc>
                </wpt>
                                                                                                                            
                <wpt lat="36.708567" lon="-119.138564">
                                                            <ele>0</ele>
                    <name><![CDATA[TRK 1-4]]></name>
                    <cmt><![CDATA[Longitude: -119.138564 
Latitude: 36.708567 
Heading: 209.7]]></cmt>
                    <desc><![CDATA[Longitude: -119.138564 
Latitude: 36.708567 
Heading: 209.7]]></desc>
                </wpt>
                                                                                                                            
                <wpt lat="36.708274" lon="-119.138685">
                                                            <ele>0</ele>
                    <name><![CDATA[TRK 1-5]]></name>
                    <cmt><![CDATA[Longitude: -119.138685 
Latitude: 36.708274 
Heading: 198.4]]></cmt>
                    <desc><![CDATA[Longitude: -119.138685 
Latitude: 36.708274 
Heading: 198.4]]></desc>
                </wpt>
                                                                                                                            
                <wpt lat="36.707932" lon="-119.138807">
                                                            <ele>0</ele>
                    <name><![CDATA[TRK 1-6]]></name>
                    <cmt><![CDATA[Longitude: -119.138807 
Latitude: 36.707932 
Heading: 195.9]]></cmt>
                    <desc><![CDATA[Longitude: -119.138807 
Latitude: 36.707932 
Heading: 195.9]]></desc>
                </wpt>
                                                                                                                            
                <wpt lat="36.707639" lon="-119.138989">
                                                            <ele>0</ele>
                    <name><![CDATA[TRK 1-7]]></name>
                    <cmt><![CDATA[Longitude: -119.138989 
Latitude: 36.707639 
Heading: 206.5]]></cmt>
                    <desc><![CDATA[Longitude: -119.138989 
Latitude: 36.707639 
Heading: 206.5]]></desc>
                </wpt>
                                                                                                                            
                <wpt lat="36.707345" lon="-119.139111">
                                                            <ele>0</ele>
                    <name><![CDATA[TRK 1-8]]></name>
                    <cmt><![CDATA[Longitude: -119.139111 
Latitude: 36.707345 
Heading: 198.4]]></cmt>
                    <desc><![CDATA[Longitude: -119.139111 
Latitude: 36.707345 
Heading: 198.4]]></desc>
                </wpt>
                                                                                                                            
                <wpt lat="36.707345" lon="-119.139111">
                                                            <ele>0</ele>
                    <name><![CDATA[TRK 1-9]]></name>
                    <cmt><![CDATA[Longitude: -119.139111 
Latitude: 36.707345 
Heading: 198.4]]></cmt>
                    <desc><![CDATA[Longitude: -119.139111 
Latitude: 36.707345 
Heading: 198.4]]></desc>
                </wpt>
                                                                                                                            
                <wpt lat="37.058509" lon="-119.517292">
                                                            <ele>0</ele>
                    <name><![CDATA[TRK 1-9]]></name>
                    <cmt><![CDATA[Longitude: -119.517292 
Latitude: 37.058509 
Heading: 707]]></cmt>
                    <desc><![CDATA[Longitude: -119.517292 
Latitude: 37.058509 
Heading: 707]]></desc>
                </wpt>
                                                                                                                            
                <wpt lat="36.706661" lon="-119.139476">
                                                            <ele>0</ele>
                    <name><![CDATA[TRK 1-10]]></name>
                    <cmt><![CDATA[Longitude: -119.139476 
Latitude: 36.706661 
Heading: 200.5]]></cmt>
                    <desc><![CDATA[Longitude: -119.139476 
Latitude: 36.706661 
Heading: 200.5]]></desc>
                </wpt>
                                                                                                                            
                <wpt lat="36.706270" lon="-119.139597">
                                                            <ele>0</ele>
                    <name><![CDATA[TRK 1-11]]></name>
                    <cmt><![CDATA[Longitude: -119.139597 
Latitude: 36.706270 
Heading: 194.0]]></cmt>
                    <desc><![CDATA[Longitude: -119.139597 
Latitude: 36.706270 
Heading: 194.0]]></desc>
                </wpt>
                                                                                                                            
                <wpt lat="36.705928" lon="-119.139780">
                                                            <ele>0</ele>
                    <name><![CDATA[TRK 1-12]]></name>
                    <cmt><![CDATA[Longitude: -119.139780 
Latitude: 36.705928 
Heading: 203.1]]></cmt>
                    <desc><![CDATA[Longitude: -119.139780 
Latitude: 36.705928 
Heading: 203.1]]></desc>
                </wpt>
                                                                                                                            
                <wpt lat="36.705586" lon="-119.139901">
                                                            <ele>0</ele>
                    <name><![CDATA[TRK 1-13]]></name>
                    <cmt><![CDATA[Longitude: -119.139901 
Latitude: 36.705586 
Heading: 195.9]]></cmt>
                    <desc><![CDATA[Longitude: -119.139901 
Latitude: 36.705586 
Heading: 195.9]]></desc>
                </wpt>
                                                                                                                            
                <wpt lat="36.705244" lon="-119.140023">
                                                            <ele>0</ele>
                    <name><![CDATA[TRK 1-14]]></name>
                    <cmt><![CDATA[Longitude: -119.140023 
Latitude: 36.705244 
Heading: 195.9]]></cmt>
                    <desc><![CDATA[Longitude: -119.140023 
Latitude: 36.705244 
Heading: 195.9]]></desc>
                </wpt>
                                                                                                                            
                <wpt lat="36.704901" lon="-119.140145">
                                                            <ele>0</ele>
                    <name><![CDATA[TRK 1-15]]></name>
                    <cmt><![CDATA[Longitude: -119.140145 
Latitude: 36.704901 
Heading: 195.9]]></cmt>
                    <desc><![CDATA[Longitude: -119.140145 
Latitude: 36.704901 
Heading: 195.9]]></desc>
                </wpt>
                                                                                                                            
                <wpt lat="36.704608" lon="-119.140266">
                                                            <ele>0</ele>
                    <name><![CDATA[TRK 1-16]]></name>
                    <cmt><![CDATA[Longitude: -119.140266 
Latitude: 36.704608 
Heading: 198.4]]></cmt>
                    <desc><![CDATA[Longitude: -119.140266 
Latitude: 36.704608 
Heading: 198.4]]></desc>
                </wpt>
                                                                                                                            
                <wpt lat="36.704315" lon="-119.140388">
                                                            <ele>0</ele>
                    <name><![CDATA[TRK 1-17]]></name>
                    <cmt><![CDATA[Longitude: -119.140388 
Latitude: 36.704315 
Heading: 198.4]]></cmt>
                    <desc><![CDATA[Longitude: -119.140388 
Latitude: 36.704315 
Heading: 198.4]]></desc>
                </wpt>
                                                                                                                            
                <wpt lat="36.704022" lon="-119.140388">
                                                            <ele>0</ele>
                    <name><![CDATA[TRK 1-18]]></name>
                    <cmt><![CDATA[Longitude: -119.140388 
Latitude: 36.704022 
Heading: 180.0]]></cmt>
                    <desc><![CDATA[Longitude: -119.140388 
Latitude: 36.704022 
Heading: 180.0]]></desc>
                </wpt>
                                                                                                                            
                <wpt lat="36.703728" lon="-119.140388">
                                                            <ele>0</ele>
                    <name><![CDATA[TRK 1-19]]></name>
                    <cmt><![CDATA[Longitude: -119.140388 
Latitude: 36.703728 
Heading: 180.0]]></cmt>
                    <desc><![CDATA[Longitude: -119.140388 
Latitude: 36.703728 
Heading: 180.0]]></desc>
                </wpt>
                                                                                                                            
                <wpt lat="36.703435" lon="-119.140388">
                                                            <ele>0</ele>
                    <name><![CDATA[TRK 1-20]]></name>
                    <cmt><![CDATA[Longitude: -119.140388 
Latitude: 36.703435 
Heading: 180.0]]></cmt>
                    <desc><![CDATA[Longitude: -119.140388 
Latitude: 36.703435 
Heading: 180.0]]></desc>
                </wpt>
                                                                                                                            
                <wpt lat="36.703142" lon="-119.140327">
                                                            <ele>0</ele>
                    <name><![CDATA[TRK 1-21]]></name>
                    <cmt><![CDATA[Longitude: -119.140327 
Latitude: 36.703142 
Heading: 170.6]]></cmt>
                    <desc><![CDATA[Longitude: -119.140327 
Latitude: 36.703142 
Heading: 170.6]]></desc>
                </wpt>
                                                            
                    
    
</gpx>